City,Country,Date,Latitude,Longitude,Cloudiness,Humidity,Max Temperature,Wind Speed
Tasiilaq,GL,2020-03-17 16:20:13,65.61,-37.64,20,78,14.0,3.36
Vao,NC,2020-03-17 16:20:13,-22.67,167.48,26,76,76.55,18.81
Kirkuk,IQ,2020-03-17 16:20:13,35.47,44.39,0,62,59.63,14.52
Ushuaia,AR,2020-03-17 16:18:17,-54.8,-68.3,75,50,55.4,3.36
Fairbanks,US,2020-03-17 16:20:03,64.84,-147.72,1,73,34.0,6.93
Shelburne,CA,2020-03-17 16:20:13,44.08,-80.2,90,52,44.6,14.99
Busselton,AU,2020-03-17 16:20:13,-33.65,115.33,68,96,51.01,17.16
Bluff,NZ,2020-03-17 16:20:13,-46.6,168.33,6,96,42.01,1.99
Puerto Ayora,EC,2020-03-17 16:20:13,-0.74,-90.35,20,66,84.2,13.87
Tuy Hoa,VN,2020-03-17 16:20:13,13.08,109.3,7,75,76.91,5.21
Kaitangata,NZ,2020-03-17 16:20:13,-46.28,169.85,4,81,45.77,9.4
Grand Gaube,MU,2020-03-17 16:19:53,-20.01,57.66,20,94,75.2,2.24
Punta Arenas,CL,2020-03-17 16:17:36,-53.15,-70.92,75,50,57.2,29.97
São Filipe,CV,2020-03-17 16:20:14,14.9,-24.5,67,80,67.01,23.35
Pevek,RU,2020-03-17 16:15:22,69.7,170.31,100,91,23.27,14.52
Nikolskoye,RU,2020-03-17 16:20:14,59.7,30.79,75,74,37.4,8.95
Lagoa,PT,2020-03-17 16:15:22,39.05,-27.98,0,79,62.69,15.97
Barrow,US,2020-03-17 16:20:14,71.29,-156.79,1,85,12.2,11.41
Berezovyy,RU,2020-03-17 16:20:14,51.67,135.7,95,87,16.79,2.01
Verkhoyansk,RU,2020-03-17 16:20:14,67.54,133.38,100,99,-6.25,3.15
Tuktoyaktuk,CA,2020-03-17 16:15:26,69.45,-133.04,90,84,-0.4,9.17
Leningradskiy,RU,2020-03-17 16:15:20,69.38,178.42,100,77,25.79,7.83
Honningsvåg,NO,2020-03-17 16:20:14,70.98,25.97,75,79,24.8,4.7
Ukiah,US,2020-03-17 16:20:14,39.15,-123.21,75,66,54.0,3.36
Gizo Government Station,SB,2020-03-17 16:20:14,-8.1,156.84,18,85,79.07,5.1
Dikson,RU,2020-03-17 16:20:14,73.51,80.55,100,100,-3.19,6.64
Chachapoyas,PE,2020-03-17 16:20:14,-6.23,-77.87,80,89,62.69,4.27
East London,ZA,2020-03-17 16:20:14,-33.02,27.91,100,82,70.61,13.85
Bay Roberts,CA,2020-03-17 16:19:25,47.6,-53.26,20,63,30.0,20.8
Qaanaaq,GL,2020-03-17 16:20:15,77.48,-69.36,96,60,-19.39,5.75
Mīrābād,AF,2020-03-17 16:20:15,30.44,61.84,100,29,71.15,6.67
Arlit,NE,2020-03-17 16:20:15,18.74,7.39,15,7,82.31,12.17
Srednekolymsk,RU,2020-03-17 16:20:15,67.45,153.68,97,96,-11.29,8.37
Hong Kong,HK,2020-03-17 16:18:08,22.29,114.16,40,73,71.01,8.05
Atuona,PF,2020-03-17 16:15:19,-9.8,-139.03,2,74,82.49,9.64
Yaan,NG,2020-03-17 16:20:15,7.38,8.57,90,13,88.79,4.29
Kudahuvadhoo,MV,2020-03-17 16:20:15,2.67,72.89,100,77,84.11,17.63
Tezu,IN,2020-03-17 16:20:15,27.92,96.17,28,50,63.23,3.11
Cape Town,ZA,2020-03-17 16:18:44,-33.93,18.42,12,88,68.0,11.41
New Norfolk,AU,2020-03-17 16:20:15,-42.78,147.06,75,49,68.0,10.29
Cabedelo,BR,2020-03-17 16:20:15,-6.98,-34.83,40,74,84.2,9.17
Harper,LR,2020-03-17 16:20:15,4.38,-7.72,90,93,78.17,4.23
Tautira,PF,2020-03-17 16:16:04,-17.73,-149.15,40,70,86.0,11.41
Butaritari,KI,2020-03-17 16:20:15,3.07,172.79,1,76,82.85,14.23
Rikitea,PF,2020-03-17 16:20:15,-23.12,-134.97,6,79,80.51,14.43
Carballo,ES,2020-03-17 16:20:15,43.21,-8.69,0,71,59.0,1.12
Kidal,ML,2020-03-17 16:20:15,18.44,1.41,91,15,81.95,4.21
George Town,MY,2020-03-17 16:20:04,5.41,100.34,20,88,80.6,3.94
Buzuluk,RU,2020-03-17 16:20:16,52.78,52.26,70,88,29.57,6.31
Port Elizabeth,ZA,2020-03-17 16:20:16,-33.92,25.57,0,82,66.2,9.17
Mataura,NZ,2020-03-17 16:20:16,-46.19,168.86,3,96,42.01,1.99
Albany,US,2020-03-17 16:20:16,42.6,-73.97,90,66,50.0,5.88
Mar del Plata,AR,2020-03-17 16:20:16,-38.0,-57.56,100,77,75.0,6.93
Mahébourg,MU,2020-03-17 16:15:31,-20.41,57.7,20,94,75.2,2.24
Guerrero Negro,MX,2020-03-17 16:15:34,27.98,-114.06,0,48,66.83,10.8
Portland,US,2020-03-17 16:19:22,45.52,-122.68,40,46,60.01,4.7
Yellowknife,CA,2020-03-17 16:19:26,62.46,-114.35,75,58,-4.0,5.82
Hobart,AU,2020-03-17 16:20:16,-42.88,147.33,75,49,68.0,10.29
Gambēla,ET,2020-03-17 16:20:16,8.25,34.58,100,45,83.75,0.94
Boyolangu,ID,2020-03-17 16:20:16,-8.12,111.89,70,92,73.67,1.03
Makakilo City,US,2020-03-17 16:19:21,21.35,-158.09,90,94,78.8,29.97
Pimentel,PE,2020-03-17 16:20:16,-6.84,-79.93,20,29,66.2,13.87
Thompson,CA,2020-03-17 16:17:27,55.74,-97.86,5,54,-0.4,6.93
Iracoubo,GF,2020-03-17 16:20:16,5.48,-53.2,54,77,80.69,13.69
Katsuura,JP,2020-03-17 16:20:16,35.13,140.3,0,65,45.0,6.93
Tessalit,ML,2020-03-17 16:20:17,20.2,1.01,93,16,83.03,8.01
Coahuayana Viejo,MX,2020-03-17 16:20:17,18.73,-103.68,5,58,82.4,11.41
Tadine,NC,2020-03-17 16:20:17,-21.55,167.88,98,74,76.91,13.87
Pisco,PE,2020-03-17 16:20:17,-13.7,-76.22,40,30,71.6,21.92
Chokurdakh,RU,2020-03-17 16:19:25,70.63,147.92,100,97,-4.45,9.51
Ponta do Sol,PT,2020-03-17 16:19:04,32.67,-17.1,40,67,59.0,17.22
Hilo,US,2020-03-17 16:15:34,19.73,-155.09,90,83,75.2,13.87
Ojinaga,MX,2020-03-17 16:20:17,29.57,-104.42,40,21,82.4,15.26
Nanortalik,GL,2020-03-17 16:20:17,60.14,-45.24,0,57,19.85,14.27
Villarrica,PY,2020-03-17 16:20:17,-25.75,-56.43,100,36,92.93,2.35
Longyearbyen,SJ,2020-03-17 16:20:07,78.22,15.64,20,68,-18.4,3.36
Bengkulu,ID,2020-03-17 16:20:16,-3.8,102.27,88,93,73.49,3.98
Kasempa,ZM,2020-03-17 16:16:25,-13.46,25.83,100,98,63.77,5.28
Nouadhibou,MR,2020-03-17 16:20:17,20.93,-17.03,88,64,68.0,23.04
Coyhaique,CL,2020-03-17 16:20:17,-45.58,-72.07,0,34,66.2,6.93
Barsovo,RU,2020-03-17 16:20:17,61.17,73.17,75,100,23.0,4.47
Mobaye,CF,2020-03-17 16:20:17,4.32,21.18,36,45,81.77,2.73
Upernavik,GL,2020-03-17 16:20:17,72.79,-56.15,15,50,-12.01,6.2
Provincia di Ancona,IT,2020-03-17 16:20:17,43.55,13.17,72,93,51.01,2.24
Esim,GH,2020-03-17 16:15:25,4.87,-2.24,100,84,80.69,6.85
Banjar,ID,2020-03-17 16:20:18,-8.19,114.97,20,88,80.6,2.24
Lerwick,GB,2020-03-17 16:19:02,60.15,-1.15,40,80,41.0,26.4
Dera Bugti,PK,2020-03-17 16:20:18,29.03,69.15,0,38,68.63,1.9
Diamantino,BR,2020-03-17 16:20:18,-14.41,-56.45,68,78,84.29,0.98
Barra de Tecoanapa,MX,2020-03-17 16:20:18,16.52,-98.75,0,35,93.47,12.66
Nabire,ID,2020-03-17 16:20:18,-3.37,135.48,100,99,71.87,0.76
Baykalovo,RU,2020-03-17 16:20:18,57.4,63.77,34,87,26.33,13.0
Hithadhoo,MV,2020-03-17 16:15:32,-0.6,73.08,92,75,84.65,12.41
Sovetskaya Gavan',RU,2020-03-17 16:20:18,48.97,140.29,99,72,26.87,5.97
Jacqueville,CI,2020-03-17 16:15:47,5.21,-4.41,20,83,84.2,8.05
Avarua,CK,2020-03-17 16:20:18,-21.21,-159.78,100,88,80.6,17.22
Gamba,GA,2020-03-17 16:20:18,-2.65,10.0,100,89,76.73,2.91
Cerro de Pasco,PE,2020-03-17 16:20:18,-10.68,-76.27,100,85,45.05,4.47
Pangnirtung,CA,2020-03-17 16:20:18,66.15,-65.71,90,65,8.6,6.93
Bethel,US,2020-03-17 16:20:18,41.37,-73.41,90,75,53.01,6.93
Carnarvon,AU,2020-03-17 16:20:18,-24.87,113.63,100,78,71.6,12.75
Vaini,TO,2020-03-17 16:20:19,-21.2,-175.2,75,94,78.8,13.87
Jamestown,US,2020-03-17 16:20:19,42.1,-79.24,90,70,42.8,14.99
Cabo San Lucas,MX,2020-03-17 16:20:19,22.89,-109.91,75,50,82.4,11.41
Eenhana,NA,2020-03-17 16:20:19,-17.47,16.33,90,90,68.27,7.38
Luanda,AO,2020-03-17 16:17:06,-8.84,13.23,40,78,82.4,4.7
Texarkana,US,2020-03-17 16:20:19,33.43,-94.05,90,82,69.01,8.05
Antofagasta,CL,2020-03-17 16:18:37,-23.65,-70.4,39,68,69.8,16.11
Lompoc,US,2020-03-17 16:20:19,34.64,-120.46,1,62,57.0,8.05
Zhuhai,CN,2020-03-17 16:20:19,22.28,113.57,40,88,71.01,9.17
Nantucket,US,2020-03-17 16:18:43,41.28,-70.1,90,93,46.4,8.05
Mascota,MX,2020-03-17 16:20:19,20.52,-104.78,20,78,78.8,11.41
Rome,US,2020-03-17 16:20:05,43.21,-75.46,90,75,45.0,8.05
Saint-Philippe,RE,2020-03-17 16:15:22,-21.36,55.77,90,94,75.2,5.82
Lorengau,PG,2020-03-17 16:20:19,-2.02,147.27,100,79,82.49,8.12
Manokwari,ID,2020-03-17 16:16:52,-0.87,134.08,82,77,73.31,4.41
Manggar,ID,2020-03-17 16:20:19,-2.88,108.27,16,80,81.77,9.57
Alyangula,AU,2020-03-17 16:20:19,-13.85,136.42,11,100,73.4,3.87
Sovetskiy,RU,2020-03-17 16:20:20,61.36,63.58,0,80,22.37,11.68
Souillac,MU,2020-03-17 16:20:20,-20.52,57.52,20,94,75.2,2.24
Provideniya,RU,2020-03-17 16:20:20,64.38,-173.3,100,96,25.79,6.67
Kapaa,US,2020-03-17 16:20:20,22.08,-159.32,90,94,69.8,8.05
Xinpu,CN,2020-03-17 16:20:20,34.6,119.16,0,78,49.01,4.05
Morón,AR,2020-03-17 16:20:20,-34.65,-58.62,90,93,71.6,14.99
Saskylakh,RU,2020-03-17 16:20:20,71.92,114.08,7,80,-23.89,7.49
Lagunas,PE,2020-03-17 16:20:20,-5.23,-75.68,100,96,77.27,1.95
Pacific Grove,US,2020-03-17 16:17:12,36.62,-121.92,90,71,57.0,3.36
Uglovka,RU,2020-03-17 16:20:20,58.24,33.51,100,87,33.17,10.63
Bonfim,BR,2020-03-17 16:20:20,3.08,-59.95,91,35,96.35,3.42
Lüderitz,NA,2020-03-17 16:15:35,-26.65,15.16,0,82,64.4,16.11
Conde,BR,2020-03-17 16:20:20,-7.26,-34.91,40,74,84.2,9.17
Barcelos,PT,2020-03-17 16:20:20,41.54,-8.62,0,77,62.01,2.24
Margate,GB,2020-03-17 16:15:48,51.38,1.39,67,87,48.99,10.29
Beringovskiy,RU,2020-03-17 16:20:20,63.05,179.32,38,87,30.11,15.93
Pinar del Río,CU,2020-03-17 16:20:20,22.42,-83.7,29,41,84.47,11.03
Meleuz,RU,2020-03-17 16:20:20,52.97,55.92,0,90,20.57,6.62
Airai,TL,2020-03-17 16:20:20,-8.93,125.41,0,82,63.77,4.32
Roebourne,AU,2020-03-17 16:20:20,-20.78,117.13,0,35,86.63,11.74
Kangaatsiaq,GL,2020-03-17 16:20:21,68.31,-53.46,100,66,11.03,23.31
Puerto Parra,CO,2020-03-17 16:20:21,6.65,-74.06,20,41,95.0,5.82
Buraidah,SA,2020-03-17 16:15:59,26.33,43.98,75,69,75.2,12.75
Sangar,RU,2020-03-17 16:20:21,63.92,127.47,100,98,-9.49,4.81
Takoradze,GH,2020-03-17 16:15:34,4.88,-1.76,100,84,80.69,6.85
Cidreira,BR,2020-03-17 16:20:21,-30.18,-50.21,93,79,73.67,19.17
Atar,MR,2020-03-17 16:20:21,20.52,-13.05,100,23,70.07,9.13
Hermanus,ZA,2020-03-17 16:20:21,-34.42,19.23,3,90,64.99,1.01
Lebu,CL,2020-03-17 16:20:21,-37.62,-73.65,0,58,66.11,9.48
Sa Kaeo,TH,2020-03-17 16:20:21,13.81,102.07,60,81,78.53,5.55
Tocopilla,CL,2020-03-17 16:20:21,-22.09,-70.2,100,57,69.71,9.46
Vozhega,RU,2020-03-17 16:20:21,60.47,40.22,100,86,28.67,9.37
Erzin,TR,2020-03-17 16:20:21,36.96,36.2,75,100,51.8,8.05
Denpasar,ID,2020-03-17 16:20:21,-8.65,115.22,20,88,80.6,2.24
Tuatapere,NZ,2020-03-17 16:16:22,-46.13,167.68,34,96,41.0,1.99
Alice Springs,AU,2020-03-17 16:18:55,-23.7,133.88,0,56,68.0,3.36
Shache,CN,2020-03-17 16:16:23,38.42,77.24,100,25,49.55,4.16
Ostrovnoy,RU,2020-03-17 16:20:21,68.05,39.51,4,92,19.67,15.28
Ahipara,NZ,2020-03-17 16:20:21,-35.17,173.17,0,53,60.53,6.82
Saint George,US,2020-03-17 16:16:14,37.1,-113.58,75,50,60.8,13.87
Zhoucheng,CN,2020-03-17 16:20:22,35.91,116.31,0,40,49.01,7.31
Oyama,JP,2020-03-17 16:20:22,36.3,139.8,75,50,48.99,2.24
Khovd,MN,2020-03-17 16:20:22,48.01,91.64,0,55,26.33,0.96
Port Lincoln,AU,2020-03-17 16:20:22,-34.73,135.87,100,40,72.05,4.07
Flinders,AU,2020-03-17 16:20:22,-34.58,150.86,0,93,57.2,8.05
Coquimbo,CL,2020-03-17 16:20:22,-29.95,-71.34,20,68,66.2,11.41
Raudeberg,NO,2020-03-17 16:20:22,61.99,5.14,75,80,42.8,18.34
Atlantis,ZA,2020-03-17 16:20:22,-33.57,18.48,0,88,68.0,11.41
Arraial do Cabo,BR,2020-03-17 16:20:22,-22.97,-42.03,75,83,78.8,3.36
Rio Grande,BR,2020-03-17 16:20:22,-32.03,-52.1,75,69,78.8,16.11
Gouré,NE,2020-03-17 16:20:22,13.98,10.27,100,7,79.61,9.8
Basoko,CD,2020-03-17 16:20:22,1.24,23.62,60,98,72.05,2.93
Seoul,KR,2020-03-17 16:20:01,37.57,126.98,1,64,35.6,1.12
Teya,RU,2020-03-17 16:20:22,60.38,92.63,100,80,7.43,5.03
Quelimane,MZ,2020-03-17 16:20:22,-17.88,36.89,20,78,80.6,4.7
Saint Paul Harbor,US,2020-03-17 16:20:22,57.79,-152.41,40,86,39.2,2.93
Xichang,CN,2020-03-17 16:20:23,27.9,102.26,99,92,36.23,3.02
Tual,ID,2020-03-17 16:20:23,-5.67,132.75,48,70,81.95,2.51
Araguaína,BR,2020-03-17 16:20:23,-7.19,-48.21,61,77,81.05,2.77
Champerico,GT,2020-03-17 16:20:23,14.3,-91.92,75,46,93.2,9.17
Boguchany,RU,2020-03-17 16:20:23,58.38,97.45,91,94,7.25,3.15
Kruisfontein,ZA,2020-03-17 16:20:23,-34.0,24.73,0,64,66.29,6.15
Fare,PF,2020-03-17 16:20:23,-16.7,-151.02,91,71,83.03,8.52
Sibolga,ID,2020-03-17 16:20:23,1.74,98.78,100,84,68.81,3.87
Kyra,RU,2020-03-17 16:20:23,49.58,111.98,26,70,19.85,13.33
Manfredonia,IT,2020-03-17 16:20:23,41.63,15.91,5,87,51.01,3.36
Chaman,PK,2020-03-17 16:20:23,30.92,66.45,0,48,56.03,3.49
Lavrentiya,RU,2020-03-17 16:20:23,65.58,-171.0,100,96,27.23,8.79
Narsaq,GL,2020-03-17 16:20:23,60.92,-46.05,20,43,15.8,4.07
Saint-Joseph,RE,2020-03-17 16:20:23,-21.37,55.62,90,94,75.2,5.82
Srandakan,ID,2020-03-17 16:20:23,-7.94,110.25,86,92,74.39,4.54
Chui,UY,2020-03-17 16:20:23,-33.7,-53.46,100,70,71.87,13.33
Mikhaylovka,RU,2020-03-17 16:20:23,50.06,43.24,0,52,34.25,2.55
Vila Franca do Campo,PT,2020-03-17 16:20:23,37.72,-25.43,20,72,60.8,6.93
Valleyview,CA,2020-03-17 16:20:23,55.07,-117.29,100,75,23.81,4.32
Severo-Kuril'sk,RU,2020-03-17 16:20:24,50.68,156.12,100,91,17.15,11.23
Karaman Province,TR,2020-03-17 16:20:24,37.08,33.25,100,96,16.97,33.96
Saint-Pierre,RE,2020-03-17 16:20:24,-21.34,55.48,90,94,75.2,5.82
Huarmey,PE,2020-03-17 16:20:24,-10.07,-78.15,42,48,82.31,8.43
San Patricio,MX,2020-03-17 16:19:11,19.22,-104.7,40,74,87.8,11.41
Ures,MX,2020-03-17 16:20:24,29.43,-110.4,33,43,75.0,1.01
San Isidro,PE,2020-03-17 16:20:24,-12.12,-77.05,100,65,78.8,11.41
Arrondissement de Vannes,FR,2020-03-17 16:20:24,47.83,-2.5,20,66,55.4,4.7
Bredasdorp,ZA,2020-03-17 16:20:24,-34.53,20.04,33,72,66.2,9.17
Rundu,NA,2020-03-17 16:16:15,-17.93,19.77,100,69,75.2,12.75
Borkenes,NO,2020-03-17 16:20:24,68.77,16.17,90,76,35.6,9.17
San Andrés,CO,2020-03-17 16:20:24,12.58,-81.7,20,66,86.0,12.75
Castro,BR,2020-03-17 16:20:24,-24.79,-50.01,0,80,72.05,5.39
Clyde River,CA,2020-03-17 16:20:24,70.47,-68.59,75,82,-16.6,16.11
Chernyshevskiy,RU,2020-03-17 16:20:24,63.01,112.47,98,96,-4.45,6.46
Ribeira Grande,PT,2020-03-17 16:20:24,38.52,-28.7,20,82,64.4,11.41
San Jose,US,2020-03-17 16:19:08,37.34,-121.89,75,58,57.99,3.36
Haines Junction,CA,2020-03-17 16:20:24,60.75,-137.51,1,70,23.63,0.94
Meulaboh,ID,2020-03-17 16:20:25,4.14,96.13,100,84,79.07,9.71
Iqaluit,CA,2020-03-17 16:20:25,63.75,-68.51,90,78,15.8,16.11
Makkah al Mukarramah,SA,2020-03-17 16:20:25,21.43,39.83,0,48,73.85,0.36
Igarka,RU,2020-03-17 16:20:25,67.47,86.58,100,92,12.11,20.13
Vardø,NO,2020-03-17 16:20:25,70.37,31.11,75,79,24.8,9.17
Beyneu,KZ,2020-03-17 16:20:25,45.32,55.2,99,61,40.55,7.54
Vikhorevka,RU,2020-03-17 16:20:25,56.12,101.16,77,61,12.2,4.47
Tuntum,BR,2020-03-17 16:20:25,-5.26,-44.65,64,88,77.99,2.19
Nome,US,2020-03-17 16:20:25,64.5,-165.41,90,92,27.0,17.22
Gisborne,NZ,2020-03-17 16:20:25,-38.65,178.0,74,79,55.0,7.0
Waipawa,NZ,2020-03-17 16:20:25,-41.41,175.52,91,54,55.4,4.7
Bosaso,SO,2020-03-17 16:16:27,11.28,49.18,100,87,78.35,13.24
Basna,IN,2020-03-17 16:20:25,21.28,82.82,0,34,76.37,2.33
Tura,IN,2020-03-17 16:20:25,25.52,90.22,0,43,66.29,1.97
Sept-Îles,CA,2020-03-17 16:16:34,50.2,-66.38,90,92,27.0,12.75
South Lake Tahoe,US,2020-03-17 16:20:26,38.93,-119.98,1,37,44.01,16.02
Mehamn,NO,2020-03-17 16:19:54,71.04,27.85,75,79,24.8,4.7
Port Alfred,ZA,2020-03-17 16:20:26,-33.59,26.89,47,97,66.99,7.0
Dongli,CN,2020-03-17 16:20:26,23.57,116.82,75,77,64.4,2.24
Mandera,KE,2020-03-17 16:20:26,3.94,41.87,29,38,90.59,20.38
Codrington,AU,2020-03-17 16:15:31,-38.27,141.97,100,57,67.73,10.87
Chastyye,RU,2020-03-17 16:20:26,57.29,54.97,61,94,22.91,4.76
Touros,BR,2020-03-17 16:20:26,-5.2,-35.46,20,66,86.0,14.99
Mae Hong Son,TH,2020-03-17 16:20:26,19.3,97.97,0,43,60.89,1.52
Manyana,BW,2020-03-17 16:20:26,-23.4,21.72,6,50,70.97,7.58
Madawaska,US,2020-03-17 16:17:30,47.36,-68.33,90,86,30.99,17.22
Mānsa,IN,2020-03-17 16:16:28,29.98,75.38,0,67,60.71,3.8
Kribi,CM,2020-03-17 16:20:26,2.95,9.92,98,84,81.59,7.52
Kurumkan,RU,2020-03-17 16:20:26,54.3,110.3,51,81,11.21,5.68
Port Blair,IN,2020-03-17 16:20:26,11.67,92.75,100,74,82.31,10.56
Jumla,NP,2020-03-17 16:19:00,29.27,82.18,0,60,31.73,4.88
Iraan,US,2020-03-17 16:20:26,30.91,-101.9,90,53,77.0,17.22
Leshukonskoye,RU,2020-03-17 16:20:27,64.9,45.76,100,85,27.77,10.09
Atikokan,CA,2020-03-17 16:20:27,48.76,-91.62,90,62,25.79,10.51
Oktyabr'skiy,RU,2020-03-17 16:20:27,54.48,53.47,75,93,26.33,6.82
Merauke,ID,2020-03-17 16:20:27,-8.47,140.33,74,95,74.03,4.9
Karmaskaly,RU,2020-03-17 16:20:27,54.37,56.18,75,74,30.2,8.95
Pangkalanbuun,ID,2020-03-17 16:20:27,-2.68,111.62,100,97,74.75,1.99
Adeje,ES,2020-03-17 16:20:27,28.12,-16.73,20,67,64.99,21.92
Port Macquarie,AU,2020-03-17 16:20:27,-31.43,152.92,91,100,60.01,5.82
Aklavik,CA,2020-03-17 16:16:59,68.22,-135.01,75,72,17.6,3.36
Sioux Lookout,CA,2020-03-17 16:20:27,50.1,-91.92,75,41,23.0,11.41
Boa Vista,BR,2020-03-17 16:20:27,2.82,-60.67,40,34,96.8,10.29
Emerald,AU,2020-03-17 16:20:27,-23.53,148.17,0,88,64.4,5.82
Province of Mantua,IT,2020-03-17 16:20:27,45.17,10.78,0,70,54.0,4.7
Orange Park,US,2020-03-17 16:20:27,30.17,-81.71,75,51,86.0,6.93
Morgan City,US,2020-03-17 16:20:27,29.7,-91.21,1,69,82.4,9.17
Faanui,PF,2020-03-17 16:20:27,-16.48,-151.75,100,73,82.67,8.1
Abu Kamal,SY,2020-03-17 16:20:27,34.45,40.92,100,87,60.53,9.71
Avera,US,2020-03-17 16:20:27,33.19,-82.53,90,77,73.4,5.06
Dawson Creek,CA,2020-03-17 16:20:27,55.77,-120.24,40,62,23.0,4.7
Helena,US,2020-03-17 16:20:28,46.59,-112.04,1,63,39.0,7.63
Kedrovyy,RU,2020-03-17 16:20:28,56.17,91.82,100,67,23.0,4.47
Bereda,ES,2020-03-17 16:20:28,43.27,-7.54,94,71,57.2,1.12
Santa Inês,BR,2020-03-17 16:20:28,-3.67,-45.38,24,85,80.51,3.0
Stornoway,GB,2020-03-17 16:20:28,58.21,-6.39,27,71,37.0,11.41
Mossamedes,AO,2020-03-17 16:20:28,-15.2,12.15,100,80,73.85,6.93
Cavalcante,BR,2020-03-17 16:20:28,-13.8,-47.46,88,91,70.25,2.71
Funadhoo,MV,2020-03-17 16:20:28,6.15,73.27,19,78,84.11,18.37
Fukuechō,JP,2020-03-17 16:20:28,32.69,128.84,20,76,53.6,4.7
Olafsvik,IS,2020-03-17 16:15:36,64.89,-23.71,100,75,28.85,41.61
Cap Malheureux,MU,2020-03-17 16:20:28,-19.98,57.61,20,94,75.2,2.24
Ancud,CL,2020-03-17 16:20:28,-41.87,-73.82,20,59,64.4,6.93
Hamilton,US,2020-03-17 16:15:30,39.18,-84.53,90,53,52.0,8.05
Camacha,PT,2020-03-17 16:20:03,33.08,-16.33,40,58,59.0,18.34
Raja,SS,2020-03-17 16:20:28,8.46,25.68,0,22,77.81,3.85
Khatanga,RU,2020-03-17 16:15:35,71.97,102.5,78,84,-16.33,8.99
Gouyave,GD,2020-03-17 16:20:28,12.16,-61.73,40,70,84.2,5.82
Westport,US,2020-03-17 16:20:28,41.14,-73.36,75,81,55.0,4.7
Dalbandin,PK,2020-03-17 16:20:29,28.89,64.41,0,32,68.63,6.22
Storforshei,NO,2020-03-17 16:20:29,66.4,14.52,75,98,35.01,5.82
Nadym,RU,2020-03-17 16:20:29,65.53,72.52,100,95,22.37,11.07
Tampere,FI,2020-03-17 16:20:29,61.5,23.79,75,93,39.2,11.41
Shizunai-furukawachō,JP,2020-03-17 16:20:29,42.33,142.37,100,98,32.09,2.53
Ponta Porã,BR,2020-03-17 16:17:28,-22.54,-55.73,20,48,87.8,9.17
Ola,RU,2020-03-17 16:20:29,59.58,151.28,100,94,7.79,2.84
Pampa,US,2020-03-17 16:19:23,35.54,-100.96,90,93,51.8,6.93
Basse-Pointe,MQ,2020-03-17 16:20:29,14.87,-61.12,0,62,84.2,11.41
Kayes,ML,2020-03-17 16:20:29,14.0,-11.0,0,11,86.99,4.83
Boende,CD,2020-03-17 16:20:29,-0.22,20.87,75,97,72.59,3.36
Mount Gambier,AU,2020-03-17 16:20:29,-37.83,140.77,100,33,71.6,14.99
Pedernales,DO,2020-03-17 16:16:12,18.04,-71.74,20,48,87.8,13.87
Phra Phutthabat,TH,2020-03-17 16:20:29,14.73,100.8,97,64,87.01,9.19
Isangel,VU,2020-03-17 16:15:45,-19.55,169.27,75,83,80.6,16.49
Yelets,RU,2020-03-17 16:20:30,52.62,38.5,0,68,33.17,8.39
Mt. Pleasant,US,2020-03-17 16:17:33,32.79,-79.86,1,82,79.0,3.98
Yangambi,CD,2020-03-17 16:20:30,0.81,24.43,100,96,72.41,1.45
Houma,US,2020-03-17 16:17:52,29.6,-90.72,1,65,82.4,8.05
Salihorsk,BY,2020-03-17 16:20:30,52.79,27.54,96,79,37.67,5.64
Māngrol,IN,2020-03-17 16:20:30,21.12,70.12,0,64,78.71,9.95
Dhidhdhoo,MV,2020-03-17 16:20:30,6.88,73.1,34,80,83.39,14.45
Cláudio,BR,2020-03-17 16:20:30,-20.44,-44.77,100,81,73.49,1.63
Pingzhuang,CN,2020-03-17 16:20:30,42.04,119.29,69,41,40.37,10.58
Bambous Virieux,MU,2020-03-17 16:20:30,-20.34,57.76,20,94,75.2,2.24
Norman Wells,CA,2020-03-17 16:20:30,65.28,-126.83,90,85,21.2,4.29
Impfondo,CG,2020-03-17 16:20:30,1.64,18.07,94,73,77.09,5.77
Beloha,MG,2020-03-17 16:20:30,-25.17,45.05,35,84,70.61,6.87
Bathsheba,BB,2020-03-17 16:15:39,13.22,-59.52,20,58,84.2,14.99
Plettenberg Bay,ZA,2020-03-17 16:20:30,-34.05,23.37,0,70,66.83,8.57
Simao,CN,2020-03-17 16:20:30,22.79,100.97,0,40,59.81,3.83
Manzanillo,CU,2020-03-17 16:20:31,20.34,-77.12,0,36,89.33,14.81
Namatanai,PG,2020-03-17 16:15:38,-3.67,152.43,100,78,81.95,8.68
Viytivka,UA,2020-03-17 16:20:31,48.43,29.54,47,92,39.47,5.41
Mamlyutka,KZ,2020-03-17 16:20:31,54.94,68.54,4,87,26.69,17.16
Sivaki,RU,2020-03-17 16:20:31,52.63,126.75,100,96,20.39,7.47
Taku,CN,2020-03-17 16:20:31,39.02,117.65,0,43,51.8,6.71
Nurota,UZ,2020-03-17 16:20:31,40.56,65.69,67,71,50.0,4.7
Eureka,US,2020-03-17 16:16:54,40.8,-124.16,90,75,46.99,5.82
Peterhead,GB,2020-03-17 16:20:31,57.51,-1.8,100,75,44.6,9.17
Ossora,RU,2020-03-17 16:19:24,59.24,163.07,100,74,11.39,8.52
Mount Abu,IN,2020-03-17 16:20:31,24.59,72.71,0,24,69.89,7.76
Magistral'nyy,RU,2020-03-17 16:20:31,56.17,107.45,100,91,17.69,4.65
Guane,CU,2020-03-17 16:20:31,22.2,-84.09,0,67,79.07,12.55
Ludvika,SE,2020-03-17 16:20:31,60.15,15.19,95,81,44.01,13.87
Fairview,US,2020-03-17 16:20:32,40.81,-74.0,75,62,55.4,4.7
Shingū,JP,2020-03-17 16:20:32,33.73,135.98,0,64,55.31,11.83
Krasnosel'kup,RU,2020-03-17 16:20:32,65.7,82.47,100,92,15.53,15.95
Agirish,RU,2020-03-17 16:20:32,61.92,63.02,0,85,20.75,11.27
Kuito,AO,2020-03-17 16:20:32,-12.38,16.93,100,97,59.09,5.12
Talnakh,RU,2020-03-17 16:20:32,69.49,88.4,40,84,8.6,26.84
Fort Nelson,CA,2020-03-17 16:19:46,58.81,-122.7,75,58,26.6,2.24
Naze,JP,2020-03-17 16:20:32,28.37,129.48,95,59,64.4,6.93
Ixtapa,MX,2020-03-17 16:20:32,20.7,-105.2,20,78,78.8,11.41
Mazagão,BR,2020-03-17 16:20:32,-0.12,-51.29,75,79,86.0,11.41
Hvizd,UA,2020-03-17 16:20:32,48.69,24.55,88,89,35.15,2.15
Inhambane,MZ,2020-03-17 16:20:32,-23.86,35.38,0,73,73.4,6.93
Manta,EC,2020-03-17 16:20:32,-0.95,-80.73,20,79,84.2,6.93
Torbay,CA,2020-03-17 16:20:32,47.67,-52.73,20,63,30.0,20.8
Kumul,CN,2020-03-17 16:20:32,42.8,93.45,33,25,41.99,1.68
Walvis Bay,NA,2020-03-17 16:20:32,-22.96,14.51,0,94,62.01,1.01
Evensk,RU,2020-03-17 16:15:37,61.95,159.23,96,96,9.23,3.8
Guéret,FR,2020-03-17 16:20:32,46.17,1.87,1,71,53.01,4.7
Bridlington,GB,2020-03-17 16:20:33,54.08,-0.19,100,76,55.99,23.04
Logan,US,2020-03-17 16:19:36,41.74,-111.83,20,29,60.8,13.87
Adolfo Ruíz Cortínes,MX,2020-03-17 16:20:33,25.75,-108.75,90,44,75.2,6.93
Flin Flon,CA,2020-03-17 16:20:33,54.77,-101.86,20,41,3.2,10.29
Cherskiy,RU,2020-03-17 16:20:33,68.75,161.3,100,95,3.65,16.24
San Quintín,MX,2020-03-17 16:20:33,30.48,-115.95,90,56,60.17,6.76
Iquique,CL,2020-03-17 16:16:45,-20.22,-70.14,23,53,77.0,18.34
Angoche,MZ,2020-03-17 16:20:33,-16.23,39.91,6,95,73.85,5.41
Yulara,AU,2020-03-17 16:17:10,-25.24,130.99,0,28,80.6,6.93
Mana,GF,2020-03-17 16:20:33,5.66,-53.78,100,67,81.59,6.31
Pangody,RU,2020-03-17 16:20:33,65.85,74.49,100,95,23.45,11.14
Sambo Creek,HN,2020-03-17 16:20:33,15.82,-86.68,0,76,79.97,14.5
Timmins,CA,2020-03-17 16:20:33,48.47,-81.33,75,49,26.6,20.8
Tazmalt,DZ,2020-03-17 16:20:33,36.39,4.4,75,93,60.8,1.79
Juneau,US,2020-03-17 16:20:26,58.3,-134.42,75,69,37.4,10.29
Klaksvík,FO,2020-03-17 16:20:33,62.23,-6.59,0,64,37.4,14.99
Bulgan,MN,2020-03-17 16:20:33,48.81,103.53,92,90,15.53,3.53
Karasburg,NA,2020-03-17 16:20:33,-28.02,18.75,0,21,77.99,15.1
Karatau,KZ,2020-03-17 16:20:34,43.17,70.47,63,62,48.11,2.28
Laas,IT,2020-03-17 16:20:34,46.62,10.7,0,66,50.0,2.24
Dhandhuka,IN,2020-03-17 16:20:34,22.37,71.98,0,20,75.65,6.8
Bima,ID,2020-03-17 16:20:34,-8.47,118.72,0,94,71.51,2.73
Constitución,CL,2020-03-17 16:20:34,-35.33,-72.42,4,65,64.13,12.57
Meadow Lake,US,2020-03-17 16:20:34,34.8,-106.54,99,23,66.99,23.04
Dingle,PH,2020-03-17 16:20:34,11.0,122.67,14,92,72.41,9.89
São João da Barra,BR,2020-03-17 16:20:34,-21.64,-41.05,75,74,82.4,11.41
Mnogovershinnyy,RU,2020-03-17 16:20:34,53.94,139.92,100,89,17.69,4.45
Lucapa,AO,2020-03-17 16:20:34,-8.42,20.74,100,97,67.19,2.33
Alta Floresta,BR,2020-03-17 16:20:34,-9.88,-56.09,40,55,87.8,6.93
Puerto Escondido,MX,2020-03-17 16:20:34,15.85,-97.07,40,74,87.8,10.29
Vila Velha,BR,2020-03-17 16:20:34,-20.33,-40.29,40,78,84.99,9.17
El Bosque,MX,2020-03-17 16:20:34,17.07,-92.73,40,29,91.4,10.29
Porto-Vecchio,FR,2020-03-17 16:20:34,41.59,9.28,0,87,51.8,4.7
Mogok,MM,2020-03-17 16:20:34,22.92,96.5,27,52,64.67,0.87
Chapais,CA,2020-03-17 16:20:35,49.78,-74.85,75,79,26.6,10.29
Bowen,AU,2020-03-17 16:20:35,-20.02,148.23,1,83,77.0,10.29
Arrondissement du Havre,FR,2020-03-17 16:20:35,49.58,0.33,100,61,51.01,6.93
Tiksi,RU,2020-03-17 16:20:35,71.69,128.87,99,89,-28.93,8.19
Yar-Sale,RU,2020-03-17 16:20:35,66.83,70.83,83,86,14.45,12.26
Yangi Marg`ilon,UZ,2020-03-17 16:20:35,40.43,71.72,94,47,55.4,4.7
Chai Badan,TH,2020-03-17 16:20:35,15.2,101.13,47,86,87.01,11.7
Cayenne,GF,2020-03-17 16:20:35,4.93,-52.33,75,78,80.6,4.7
Sindi,IN,2020-03-17 16:20:35,20.8,78.87,40,88,69.8,4.7
Chara,RU,2020-03-17 16:15:59,56.91,118.26,100,76,16.61,3.02
Kagoro,NG,2020-03-17 16:20:35,9.6,8.38,100,27,73.4,10.29
San Cristobal,VE,2020-03-17 16:15:56,7.77,-72.22,40,58,84.2,9.17
Soyo,AO,2020-03-17 16:20:35,-6.13,12.37,100,88,78.35,5.12
High Level,CA,2020-03-17 16:20:35,58.52,-117.14,75,72,17.6,8.05
Neiafu,TO,2020-03-17 16:20:35,-18.65,-173.98,75,83,84.2,8.05
Marzuq,YE,2020-03-17 16:19:13,14.4,46.47,52,83,65.75,3.24
Warrington,GB,2020-03-17 16:18:32,53.39,-2.58,75,82,55.99,25.28
Adrar,MR,2020-03-17 16:20:36,20.5,-10.07,100,24,72.41,10.38
Tazovsky,RU,2020-03-17 16:20:36,67.47,78.7,100,94,19.85,17.18
Merta,IN,2020-03-17 16:20:36,26.65,74.03,16,30,68.81,7.74
La Libertad,EC,2020-03-17 16:20:36,-2.23,-80.9,41,66,86.0,9.17
Sur,OM,2020-03-17 16:20:36,22.57,59.53,0,57,66.65,4.27
Katangli,RU,2020-03-17 16:20:36,51.71,143.23,17,89,14.45,6.82
Álamos,MX,2020-03-17 16:20:36,27.02,-108.93,100,43,75.99,4.0
Bubaque,GW,2020-03-17 16:20:36,11.28,-15.83,27,70,79.97,21.83
Skjervøy,NO,2020-03-17 16:20:36,70.03,20.97,90,92,28.4,4.7
Veselynove,UA,2020-03-17 16:20:36,47.36,31.23,46,69,37.85,8.05
Taldan,RU,2020-03-17 16:20:36,53.67,124.8,100,96,24.17,6.26
Kuril'sk,RU,2020-03-17 16:20:36,45.23,147.88,38,79,27.23,6.51
Tibati,CM,2020-03-17 16:15:41,6.47,12.63,100,23,73.31,5.3
Vanimo,PG,2020-03-17 16:20:36,-2.67,141.3,81,80,81.77,10.29
Polyanka,UA,2020-03-17 16:20:36,50.26,27.69,0,87,36.77,2.68
Tiznit Province,MA,2020-03-17 16:20:36,29.58,-9.5,100,83,47.75,12.91
Mahina,PF,2020-03-17 16:20:36,-17.51,-149.49,40,70,86.0,11.41
Sitka,US,2020-03-17 16:20:12,57.05,-135.33,1,65,41.0,13.87
Geraldton,AU,2020-03-17 16:16:18,-28.77,114.6,90,60,69.8,10.29
Alto Araguaia,BR,2020-03-17 16:20:37,-17.31,-53.22,30,73,78.53,4.47
Nikel,RU,2020-03-17 16:20:37,69.41,30.22,75,85,24.8,11.41
Labuhan,ID,2020-03-17 16:20:37,-6.88,112.21,100,94,74.93,2.24
Porto-Novo,BJ,2020-03-17 16:20:37,6.5,2.6,40,83,84.2,12.75
Santo Domingo,DO,2020-03-17 16:20:37,18.5,-69.99,75,65,82.4,13.87
Guamúchil,MX,2020-03-17 16:20:26,25.47,-108.1,93,14,88.97,5.26
Athabasca,CA,2020-03-17 16:20:37,54.72,-113.29,100,83,20.57,4.99
Ucluelet,CA,2020-03-17 16:18:23,48.93,-125.55,75,45,52.0,3.36
Edd,ER,2020-03-17 16:20:37,13.93,41.69,73,73,79.97,7.52
Byron Bay,AU,2020-03-17 16:20:37,-28.65,153.62,62,68,66.99,10.29
Altamira,BR,2020-03-17 16:20:37,-3.2,-52.21,75,79,84.2,6.93
Rio Tinto,PT,2020-03-17 16:20:37,41.18,-8.56,0,77,62.01,2.24
Haapiti,PF,2020-03-17 16:20:37,-17.57,-149.87,40,70,86.0,11.41
San Joaquin,VE,2020-03-17 16:20:38,10.26,-67.79,54,85,75.11,9.89
Springbok,ZA,2020-03-17 16:20:38,-29.66,17.89,0,61,58.01,4.94
Egvekinot,RU,2020-03-17 16:20:38,66.32,-179.17,100,96,22.55,4.9
Severo-Yeniseyskiy,RU,2020-03-17 16:20:38,60.37,93.04,100,80,7.61,4.74
Berlevåg,NO,2020-03-17 16:20:38,70.86,29.09,75,79,24.8,6.93
Blytheville,US,2020-03-17 16:20:38,35.93,-89.92,90,76,55.99,10.29
Caraquet,CA,2020-03-17 16:20:38,47.79,-64.94,90,86,33.01,13.87
Zhigansk,RU,2020-03-17 16:20:38,66.77,123.37,0,91,-29.47,12.57
Half Moon Bay,US,2020-03-17 16:18:09,37.46,-122.43,75,58,57.99,3.36
Hasaki,JP,2020-03-17 16:20:38,35.73,140.83,75,75,42.8,6.93
Rocha,UY,2020-03-17 16:20:38,-34.48,-54.33,100,58,70.97,11.27
Padborg,DK,2020-03-17 16:20:38,54.83,9.36,100,87,46.99,9.17
Lata,PT,2020-03-17 16:20:38,40.16,-8.33,20,82,61.0,5.82
Āsbe Teferī,ET,2020-03-17 16:20:38,9.08,40.87,85,71,66.11,1.3
Uitenhage,ZA,2020-03-17 16:20:38,-33.76,25.4,0,82,66.2,9.17
Pathein,MM,2020-03-17 16:16:22,16.78,94.73,1,75,78.89,12.35
Karaton,ID,2020-03-17 16:20:39,-6.34,106.1,75,94,78.8,2.24
Sistranda,NO,2020-03-17 16:19:45,63.73,8.83,75,93,37.99,29.97
Iralaya,HN,2020-03-17 16:20:39,15.0,-83.23,40,55,87.8,10.29
Abu Dhabi,AE,2020-03-17 16:20:39,24.47,54.37,0,64,77.0,4.7
Menongue,AO,2020-03-17 16:20:39,-14.66,17.69,100,96,63.95,2.91
Victor Harbor,AU,2020-03-17 16:20:39,-35.57,138.62,100,25,79.0,10.29
Opunake,NZ,2020-03-17 16:20:39,-39.46,173.86,8,67,55.99,1.99
Essau,GM,2020-03-17 16:20:39,13.48,-16.53,0,83,73.4,12.75
Lodja,CD,2020-03-17 16:20:39,-3.48,23.43,100,99,67.73,0.47
Havøysund,NO,2020-03-17 16:20:39,71.0,24.66,100,79,24.8,4.7
Novi di Modena,IT,2020-03-17 16:17:16,44.89,10.9,0,81,52.0,2.24
Nosy Varika,MG,2020-03-17 16:20:39,-20.58,48.53,100,93,74.57,2.84
Kamen'-Rybolov,RU,2020-03-17 16:20:39,44.75,132.04,0,84,25.43,8.63
Bogotol,RU,2020-03-17 16:20:39,56.21,89.53,100,79,28.85,17.9
Vilcún,CL,2020-03-17 16:16:20,-38.65,-72.23,40,50,77.0,5.82
Plainview,US,2020-03-17 16:19:22,40.78,-73.47,90,71,55.99,10.29
San Juan,AR,2020-03-17 16:20:40,-31.54,-68.54,7,26,85.37,19.64
Conceição do Araguaia,BR,2020-03-17 16:19:06,-8.26,-49.26,15,66,89.6,5.82
Sechura,PE,2020-03-17 16:20:40,-5.56,-80.82,3,85,76.37,15.23
Kachīry,KZ,2020-03-17 16:20:40,53.07,76.1,23,86,24.53,14.72
Okhotsk,RU,2020-03-17 16:20:40,59.38,143.3,0,77,-2.83,5.82
Mahon,ES,2020-03-17 16:15:51,39.89,4.27,20,87,57.2,11.41
Kavieng,PG,2020-03-17 16:20:40,-2.57,150.8,100,75,83.03,12.35
Rassvet,RU,2020-03-17 16:20:40,46.83,40.75,0,65,35.15,3.65
Kahului,US,2020-03-17 16:20:40,20.89,-156.47,20,61,80.6,4.7
Nioro,GM,2020-03-17 16:20:40,13.35,-15.75,0,37,81.23,12.15
Port-Gentil,GA,2020-03-17 16:20:40,-0.72,8.78,40,89,84.2,9.17
Kamaishi,JP,2020-03-17 16:20:40,39.27,141.88,0,79,38.03,3.58
Gaza,PS,2020-03-17 16:20:40,31.5,34.47,75,82,55.4,10.29
Mbekenyera,TZ,2020-03-17 16:20:40,-10.0,38.98,100,97,69.71,1.52
Zhangaözen,KZ,2020-03-17 16:20:40,43.3,52.8,100,63,39.29,16.46
Marsh Harbour,BS,2020-03-17 16:20:41,26.54,-77.06,0,67,72.77,9.01
Pemberton,CA,2020-03-17 16:20:41,50.32,-122.8,5,25,51.8,5.82
Turtas,RU,2020-03-17 16:20:41,58.94,69.13,100,92,27.23,12.77
Wabag,PG,2020-03-17 16:20:41,-5.48,143.7,100,98,48.29,1.16
Vestmannaeyjar,IS,2020-03-17 16:20:41,63.44,-20.27,77,70,34.97,2.53
Malibu,US,2020-03-17 16:20:41,34.01,-118.81,40,44,62.01,4.7
Batemans Bay,AU,2020-03-17 16:20:41,-35.72,150.18,0,100,55.99,4.52
Calvinia,ZA,2020-03-17 16:16:20,-31.47,19.78,0,51,59.99,3.96
Iberia,US,2020-03-17 16:16:14,29.95,-91.75,90,88,80.6,8.05
Mpanda,TZ,2020-03-17 16:20:41,-6.37,31.04,37,97,63.59,0.83
Fortuna,US,2020-03-17 16:15:50,40.6,-124.16,75,87,46.99,14.99
Selishche,RU,2020-03-17 16:20:41,56.89,33.27,99,92,32.99,8.19
Pelotas,BR,2020-03-17 16:20:41,-31.77,-52.34,75,69,78.8,16.11
Teknāf,BD,2020-03-17 16:20:41,20.86,92.31,0,67,64.85,2.84
Megion,RU,2020-03-17 16:20:41,61.03,76.11,90,92,24.8,2.24
Greece,US,2020-03-17 16:18:29,43.21,-77.69,90,56,46.0,21.92
Clearwater,US,2020-03-17 16:20:42,27.97,-82.8,40,61,87.01,8.05
Luba,GQ,2020-03-17 16:20:42,3.46,8.55,20,89,84.2,8.05
Dongsheng,CN,2020-03-17 16:20:42,39.82,109.98,78,20,42.53,21.77
Yichang,CN,2020-03-17 16:20:42,30.71,111.28,42,71,55.67,2.48
Port Hardy,CA,2020-03-17 16:20:42,50.7,-127.42,20,75,44.6,11.41
Cintalapa,MX,2020-03-17 16:20:42,16.7,-93.73,4,27,91.13,7.92
Ilulissat,GL,2020-03-17 16:20:42,69.22,-51.1,75,49,3.2,21.92
Alfreton,GB,2020-03-17 16:20:42,53.1,-1.39,75,81,55.4,17.22
Kutum,SD,2020-03-17 16:20:42,14.2,24.67,0,15,69.89,12.1
Henderson,US,2020-03-17 16:17:46,36.04,-114.98,75,41,59.0,14.99
Deputatsky,RU,2020-03-17 16:20:42,69.3,139.9,62,88,-18.85,7.27
Kirakira,SB,2020-03-17 16:20:42,-10.45,161.92,85,82,79.25,2.35
Sinnamary,GF,2020-03-17 16:20:42,5.38,-52.95,54,77,80.69,13.69
Vostok,RU,2020-03-17 16:20:42,46.49,135.88,57,91,12.29,5.41
Alizai,PK,2020-03-17 16:20:42,33.54,70.35,100,64,55.49,2.89
Balkhash,KZ,2020-03-17 16:20:42,46.84,74.98,100,78,36.05,12.53
Nacala,MZ,2020-03-17 16:20:43,-14.54,40.67,61,94,72.77,4.03
College,US,2020-03-17 16:19:36,64.86,-147.8,1,73,34.0,6.93
Turaif,SA,2020-03-17 16:20:43,31.67,38.66,40,93,51.8,13.87
Great Yarmouth,GB,2020-03-17 16:20:43,52.61,1.73,20,81,53.01,16.11
Concarneau,FR,2020-03-17 16:20:43,47.88,-3.92,73,81,50.0,3.36
Bayir,TR,2020-03-17 16:20:43,37.27,28.22,0,49,46.4,9.17
Port Hedland,AU,2020-03-17 16:20:43,-20.32,118.57,0,88,78.8,4.7
Barra do Garças,BR,2020-03-17 16:16:40,-15.89,-52.26,75,59,89.6,2.24
Birjand,IR,2020-03-17 16:20:43,32.87,59.22,75,51,59.0,11.41
Hofn,IS,2020-03-17 16:20:43,64.25,-15.21,100,92,38.39,11.79
Rome,US,2020-03-17 16:18:51,34.26,-85.16,1,72,70.0,1.59
Kamina,CD,2020-03-17 16:20:43,-8.74,24.99,100,98,65.93,6.46
Killybegs,IE,2020-03-17 16:20:43,54.63,-8.45,20,75,44.6,11.41
Laguna,US,2020-03-17 16:20:43,38.42,-121.42,75,71,55.99,5.82
Saldanha,ZA,2020-03-17 16:20:43,-33.01,17.94,0,82,62.6,8.05
Yatou,CN,2020-03-17 16:19:15,37.15,122.38,0,69,45.95,10.56
Poço Branco,BR,2020-03-17 16:20:43,-5.62,-35.66,20,66,86.0,14.99
Grafton,US,2020-03-17 16:19:21,42.21,-71.69,90,93,46.99,4.7
Kalmunai,LK,2020-03-17 16:20:44,7.42,81.82,100,80,80.33,6.38
Biloela,AU,2020-03-17 16:20:44,-24.42,150.5,0,80,63.77,17.43
Moindou,NC,2020-03-17 16:20:44,-21.69,165.68,0,83,73.4,3.02
Fomboni,KM,2020-03-17 16:20:44,-12.28,43.74,97,63,84.65,4.12
Omsukchan,RU,2020-03-17 16:20:44,62.53,155.8,99,96,0.23,1.01
Destin,US,2020-03-17 16:16:45,30.39,-86.5,1,73,81.0,9.17
Saint-Marc,HT,2020-03-17 16:20:44,19.11,-72.69,4,50,79.07,5.7
Grindavik,IS,2020-03-17 16:20:44,63.84,-22.43,75,86,32.0,24.16
Yulin,CN,2020-03-17 16:20:44,22.63,110.15,95,91,65.03,2.77
Kirkwall,GB,2020-03-17 16:18:51,58.98,-2.96,98,86,39.99,14.99
Strenči,LV,2020-03-17 16:20:44,57.63,25.69,81,78,41.0,5.01
San Borja,BO,2020-03-17 16:20:44,-14.82,-66.85,90,94,75.2,4.14
Bétaré Oya,CM,2020-03-17 16:20:44,5.6,14.08,100,26,75.11,2.75
Micheweni,TZ,2020-03-17 16:20:44,-4.97,39.83,100,74,84.29,7.54
Thinadhoo,MV,2020-03-17 16:20:44,0.53,72.93,62,75,84.83,14.45
Indianola,US,2020-03-17 16:17:50,41.36,-93.56,90,39,50.0,8.05
Gravdal,NO,2020-03-17 16:20:45,68.12,13.5,75,86,37.4,14.99
Salalah,OM,2020-03-17 16:20:45,17.02,54.09,75,69,78.8,6.93
Mandalgovi,MN,2020-03-17 16:20:45,45.76,106.27,2,67,20.75,29.66
Alofi,NU,2020-03-17 16:20:45,-19.06,-169.92,75,79,84.2,8.05
Nizwá,OM,2020-03-17 16:20:45,22.93,57.53,0,48,61.61,0.45
Lamu,KE,2020-03-17 16:20:45,-2.27,40.9,100,77,84.47,14.36
Lemta,TN,2020-03-17 16:20:45,35.67,10.88,40,77,60.8,17.22
Agadez,NE,2020-03-17 16:20:45,19.75,10.25,0,10,76.37,6.35
Batagay,RU,2020-03-17 16:20:45,67.63,134.63,100,99,-6.07,2.42
Belém de São Francisco,BR,2020-03-17 16:20:45,-8.75,-38.97,100,55,85.91,4.05
Jalu,LY,2020-03-17 16:20:45,29.03,21.55,0,28,62.87,16.24
Karla,EE,2020-03-17 16:20:45,59.37,24.93,90,80,43.0,13.87
Agüimes,ES,2020-03-17 16:20:45,27.91,-15.45,75,63,64.0,17.22
